{"type":"FeatureCollection","features":[{"type":"Feature","properties":{"Name":"WATERFRONT","description":null,"Field_1":"WATERFRONT"},"geometry":{"type":"Point","coordinates":[-123.111738155627,49.2860754854493]}},{"type":"Feature","properties":{"Name":"BURRARD","description":null,"Field_1":"BURRARD"},"geometry":{"type":"Point","coordinates":[-123.119972336831,49.2858601496754]}},{"type":"Feature","properties":{"Name":"GRANVILLE","description":null,"Field_1":"GRANVILLE"},"geometry":{"type":"Point","coordinates":[-123.116404027665,49.2836376878638]}},{"type":"Feature","properties":{"Name":"STADIUM - CHINATOWN","description":null,"Field_1":"STADIUM - CHINATOWN"},"geometry":{"type":"Point","coordinates":[-123.109564795656,49.2794416930032]}},{"type":"Feature","properties":{"Name":"MAIN ST. - SCIENCE WORLD","description":null,"Field_1":"MAIN ST. - SCIENCE WORLD"},"geometry":{"type":"Point","coordinates":[-123.100606907519,49.2731779129851]}},{"type":"Feature","properties":{"Name":"BROADWAY","description":null,"Field_1":"BROADWAY"},"geometry":{"type":"Point","coordinates":[-123.069099402992,49.2618178476532]}},{"type":"Feature","properties":{"Name":"NANAIMO","description":null,"Field_1":"NANAIMO"},"geometry":{"type":"Point","coordinates":[-123.055871516595,49.2482722113354]}},{"type":"Feature","properties":{"Name":"29TH AVENUE","description":null,"Field_1":"29TH AVENUE"},"geometry":{"type":"Point","coordinates":[-123.045940674179,49.2442425934484]}},{"type":"Feature","properties":{"Name":"JOYCE - COLLINGWOOD","description":null,"Field_1":"JOYCE - COLLINGWOOD"},"geometry":{"type":"Point","coordinates":[-123.031806717203,49.2383938064]}},{"type":"Feature","properties":{"Name":"RUPERT","description":null,"Field_1":"RUPERT"},"geometry":{"type":"Point","coordinates":[-123.032823831819,49.2607647789351]}},{"type":"Feature","properties":{"Name":"RENFREW","description":null,"Field_1":"RENFREW"},"geometry":{"type":"Point","coordinates":[-123.045308458871,49.2588929116788]}},{"type":"Feature","properties":{"Name":"COMMERCIAL DRIVE","description":null,"Field_1":"COMMERCIAL DRIVE"},"geometry":{"type":"Point","coordinates":[-123.068453898483,49.2629362684988]}},{"type":"Feature","properties":{"Name":"VCC - CLARK","description":null,"Field_1":"VCC - CLARK"},"geometry":{"type":"Point","coordinates":[-123.078962252228,49.2657831997804]}},{"type":"Feature","properties":{"Name":"WATERFRONT","description":null,"Field_1":"WATERFRONT"},"geometry":{"type":"Point","coordinates":[-123.113339268651,49.2856657680643]}},{"type":"Feature","properties":{"Name":"VANCOUVER\\nCITY\\nCENTRE","description":null,"Field_1":"VANCOUVER\\nCITY\\nCENTRE"},"geometry":{"type":"Point","coordinates":[-123.119284088603,49.2817347083362]}},{"type":"Feature","properties":{"Name":"YALETOWN-/nROUNDHOUSE","description":null,"Field_1":"YALETOWN-/nROUNDHOUSE"},"geometry":{"type":"Point","coordinates":[-123.121890377366,49.2743622559558]}},{"type":"Feature","properties":{"Name":"OLYMPIC\\nVILLAGE","description":null,"Field_1":"OLYMPIC\\nVILLAGE"},"geometry":{"type":"Point","coordinates":[-123.115196678961,49.2663402332777]}},{"type":"Feature","properties":{"Name":"BROADWAY-\\nCITY HALL","description":null,"Field_1":"BROADWAY-\\nCITY HALL"},"geometry":{"type":"Point","coordinates":[-123.114782181714,49.2627734692085]}},{"type":"Feature","properties":{"Name":"KING EDWARD","description":null,"Field_1":"KING EDWARD"},"geometry":{"type":"Point","coordinates":[-123.115336104396,49.2491228793651]}},{"type":"Feature","properties":{"Name":"OAKRIDGE-\\n41st. AVE.","description":null,"Field_1":"OAKRIDGE-\\n41st. AVE."},"geometry":{"type":"Point","coordinates":[-123.116040675754,49.2334668118113]}},{"type":"Feature","properties":{"Name":"LANGARA-\\n49th AVE.","description":null,"Field_1":"LANGARA-\\n49th AVE."},"geometry":{"type":"Point","coordinates":[-123.116324861119,49.2263869203022]}},{"type":"Feature","properties":{"Name":"MARINE DRIVE","description":null,"Field_1":"MARINE DRIVE"},"geometry":{"type":"Point","coordinates":[-123.117070775897,49.2095478744217]}}]}